[
  {
    "id": 1,
    "bin_lng": 41.021203479207365,
    "bin_lat": 28.898513332488143,
    "bin_location_str": "YTU DAVUTPASA A KAPISI",
    "bin_area_code": 1,
    "bin_type_id": 1,
    "is_full": 1
  },
  {
    "id": 2,
    "bin_lng": 41.02295259670004,
    "bin_lat": 28.89648476141421,
    "bin_location_str": "YTU DAVUTPASA OSYM BINA",
    "bin_area_code": 1,
    "bin_type_id": 1,
    "is_full": 1
  },
  {
    "id": 3,
    "bin_lng": 41.02613659317252,
    "bin_lat": 28.892515584579474,
    "bin_location_str": "YTU DAVUTPASA YILDIZ STORE",
    "bin_area_code": 1,
    "bin_type_id": 1,
    "is_full": 0
  },
  {
    "id": 4,
    "bin_lng": 41.02678278556868,
    "bin_lat": 28.8918103939796,
    "bin_location_str": "YTU DAVUTPASA KÄ°MYA METALURJI",
    "bin_area_code": 1,
    "bin_type_id": 1,
    "is_full": 1
  },
  {
    "id": 5,
    "bin_lng": 41.02732458097609,
    "bin_lat": 28.890874016908942,
    "bin_location_str": "YTU DAVUTPASA FEF",
    "bin_area_code": 1,
    "bin_type_id": 1,
    "is_full": 1
  },
  {
    "id": 6,
    "bin_lng": 41.02807131154719,
    "bin_lat": 28.889860764660583,
    "bin_location_str": "YTU DAVUTPASA ELEKTRIK",
    "bin_area_code": 1,
    "bin_type_id": 1,
    "is_full": 0
  },
  {
    "id": 7,
    "bin_lng": 41.02890128255002,
    "bin_lat": 28.887606863607058,
    "bin_location_str": "YTU DAVUTPASA CAMI",
    "bin_area_code": 1,
    "bin_type_id": 1,
    "is_full": 1
  },
  {
    "id": 8,
    "bin_lng": 41.02919895956342,
    "bin_lat": 28.885279393080125,
    "bin_location_str": "YTU DAVUTPASA BILGI ISLEM",
    "bin_area_code": 1,
    "bin_type_id": 1,
    "is_full": 0
  },
  {
    "id": 9,
    "bin_lng": 41.028709557648384,
    "bin_lat": 28.88482125592209,
    "bin_location_str": "YTU DAVUTPASA MEDIKO",
    "bin_area_code": 1,
    "bin_type_id": 1,
    "is_full": 0
  },
  {
    "id": 10,
    "bin_lng": 41.02890128255002,
    "bin_lat": 28.887606863607058,
    "bin_location_str": "YTU DAVUTPASA CAMI",
    "bin_area_code": 1,
    "bin_type_id": 1,
    "is_full": 0
  },
  {
    "id": 11,
    "bin_lng": 41.02972579525999,
    "bin_lat": 28.886085680429446,
    "bin_location_str": "YTU DAVUTPASA LOJMAN",
    "bin_area_code": 1,
    "bin_type_id": 1,
    "is_full": 1
  },
  {
    "id": 12,
    "bin_lng": 41.028352858472054,
    "bin_lat": 28.886286712328673,
    "bin_location_str": "YTU DAVUTPASA EGITIM FAK.",
    "bin_area_code": 1,
    "bin_type_id": 1,
    "is_full": 1
  },
  {
    "id": 13,
    "bin_lng": 41.0273202077974,
    "bin_lat": 28.88541443401949,
    "bin_location_str": "YTU DAVUTPASA KULUPLER VADISI",
    "bin_area_code": 1,
    "bin_type_id": 1,
    "is_full": 0
  },
  {
    "id": 14,
    "bin_lng": 41.026892580838506,
    "bin_lat": 28.887702322763918,
    "bin_location_str": "YTU DAVUTPASA YEMEKHANE",
    "bin_area_code": 1,
    "bin_type_id": 1,
    "is_full": 0
  },
  {
    "id": 15,
    "bin_lng": 41.02388857632618,
    "bin_lat": 28.888445848193115,
    "bin_location_str": "YTU DAVUTPASA INSAAT",
    "bin_area_code": 1,
    "bin_type_id": 1,
    "is_full": 0
  },
  {
    "id": 16,
    "bin_lng": 41.02195261096835,
    "bin_lat": 28.89163527927424,
    "bin_location_str": "YTU DAVUTPASA YABANCI DILLER",
    "bin_area_code": 1,
    "bin_type_id": 1,
    "is_full": 0
  },
  {
    "id": 17,
    "bin_lng": 41.02073746710232,
    "bin_lat": 28.889562305205157,
    "bin_location_str": "YTU DAVUTPASA TEKNOPARK",
    "bin_area_code": 1,
    "bin_type_id": 1,
    "is_full": 1
  },
  {
    "id": 18,
    "bin_lng": 41.023817000717585,
    "bin_lat": 28.89369434472737,
    "bin_location_str": "YTU DAVUTPASA OTAGI HUMAYUN",
    "bin_area_code": 1,
    "bin_type_id": 1,
    "is_full": 0
  },
  {
    "id": 19,
    "bin_lng": 41.02199520770014,
    "bin_lat": 28.894112361631365,
    "bin_location_str": "YTU DAVUTPASA MERKEZ KUTUP",
    "bin_area_code": 1,
    "bin_type_id": 1,
    "is_full": 1
  },
  {
    "id": 20,
    "bin_lng": 41.025456724262945,
    "bin_lat": 28.890256242274692,
    "bin_location_str": "YTU DAVUTPASA TAS BINA",
    "bin_area_code": 1,
    "bin_type_id": 1,
    "is_full": 0
  }
]
